{"html_attributions": [], "next_page_token": "CrQCJgEAAEOxRn5v7NRnzvNfKW32oiaIqMIvaIp1CWSBsfIbJyrsqZqVI9J-9VMO6RmufWQZMBu_GzWeMbO8hEXstUoOFMZy9ARfwG0ta69wci5v-4bOdqxmEUTP2cJ88XY1vSHls-Ika5GijOVuqw2e2z6XI54BLIBbaCh9kcIRFW_h62m-gSF29E8f53xSTfoMkDE3dbnSkugtL34dR87Rw_zkDuLFRru-4bJf6l0dZSWkPyYbHSS058erm5Tv_uFzQP_jp39J4Mv8d9G-pR558wtLh4AbVM6wR8M31LSCnfu0zB7pCiBArcRLbu66rlkmKvWTVQaR1gCwfd-xPhYo7RB-AwRFO1uqnnp8NvPaDW4JciNiwFGZzZP2ki8xFfpzQtZAfFv78TxiFPMn3Rpm23zi-08SEH2MUqlU087aSJYL3VibwAgaFC9aij6ynr2LAmWCNQHRAQ6r0qfh", "results": [{"business_status": "OPERATIONAL", "geometry": {"location": {"lat": 49.890802, "lng": -97.13074089999999}, "viewport": {"northeast": {"lat": 49.89197953029151, "lng": -97.13006366970849}, "southwest": {"lat": 49.88928156970851, "lng": -97.1327616302915}}}, "icon": "https://maps.gstatic.com/mapfiles/place_api/icons/museum-71.png", "id": "732552d2490badfaf4f8537ed49d6db20a260e9f", "name": "Canadian Museum for Human Rights", "opening_hours": {"open_now": True}, "photos": [{"height": 3159, "html_attributions": ["<a href="https://maps.google.com/maps/contrib/118190241056957908538">Canadian Museum for Human Rights</a>"], "photo_reference": "CmRaAAAAWZk7_D1Q_d2NC8ESzYx1FUHXjf0H-3WSKkOt_s0ZCgiLP4tmamBvBR398vMyNF85xYzQrZ8dTMiAOnSTzk1S5nae0HMVaZq0HRKDYNrLW0PPoQre3ZAYU6V9oFqtCyObEhAIZ0Q4csBMzvlevXLy8WYJGhRR5txYC-US1XpmdgTW6OuFQmSnkA", "width": 5616}], "place_id": "ChIJXSOvwlpx6lIRtPaqUs32cNI", "plus_code": {"compound_code": "VVR9+8P Winnipeg, MB, Canada", "global_code": "86X4VVR9+8P"}, "rating": 4.6, "reference": "ChIJXSOvwlpx6lIRtPaqUs32cNI", "scope": "GOOGLE", "types": ["museum", "tourist_attraction", "point_of_interest", "establishment"], "user_ratings_total": 3343, "vicinity": "85 Israel Asper Way, Winnipeg"}, {"business_status": "OPERATIONAL", "geometry": {"location": {"lat": 49.9000253, "lng": -97.1364389}, "viewport": {"northeast": {"lat": 49.9015595802915, "lng": -97.1349412697085}, "southwest": {"lat": 49.8988616197085, "lng": -97.13763923029151}}}, "icon": "https://maps.gstatic.com/mapfiles/place_api/icons/museum-71.png", "id": "0783ad0b400afa86dbf0e6bfdd88b6a2bd0fdcc2", "name": "The Manitoba Museum", "opening_hours": {"open_now": False}, "photos": [{"height": 1365, "html_attributions": ["<a href="https://maps.google.com/maps/contrib/109070808460749791648">The Manitoba Museum</a>"], "photo_reference": "CmRaAAAAPKUNQaiWSQPr9o19Nl18y-qv1qkkKerlssXIXwttD6Oo-zhRImupGSHOowl0ArjLbgsGkTRmm3OkKuHXY6jJrD_OUM-TWjqy3JLBBZRITXa6c0ShFvHOXGwhpPw5KlPeEhCvLnD3RWBfKbjzRM4XCo8wGhQ9oFhV08fWGYzTJGVfDGEsTeBwmQ", "width": 2048}], "place_id": "ChIJr6oUzEJx6lIRfFLRBjjsZc0", "plus_code": {"compound_code": "WV27+2C Winnipeg, MB, Canada", "global_code": "86X4WV27+2C"}, "rating": 4.6, "reference": "ChIJr6oUzEJx6lIRfFLRBjjsZc0", "scope": "GOOGLE", "types": ["tourist_attraction", "museum", "point_of_interest", "establishment"], "user_ratings_total": 1642, "vicinity": "190 Rupert Avenue, Winnipeg"}, {"business_status": "OPERATIONAL", "geometry": {"location": {"lat": 49.9069448, "lng": -97.12962979999999}, "viewport": {"northeast": {"lat": 49.9082706302915, "lng": -97.1280780197085}, "southwest": {"lat": 49.9055726697085, "lng": -97.1307759802915}}}, "icon": "https://maps.gstatic.com/mapfiles/place_api/icons/museum-71.png", "id": "edd8942e327e199dc549aa66c733e52d15819708", "name": "Ross House Museum", "opening_hours": {"open_now": True}, "photos": [{"height": 1160, "html_attributions": ["<a href="https://maps.google.com/maps/contrib/104524464588180255261">Ross House Museum</a>"], "photo_reference": "CmRaAAAAV27P9g1ZZkHp1s68NgZlDpU2NzWJDPMcsnCXF_y2wsJ0afGvvtIkS_T1axzZS_-0iSiCXjNPG7iRwWixAY4rcojd-F4IwqLnCx27QNp34YzmrozR41qUGv-H5avDn0T4EhCZV1JtksYsplbfP4CdbTiAGhTI2SKtBm64r0QDvK6tGrDb1o7GfQ", "width": 2048}], "place_id": "ChIJR-eK_j5Gc0ERGsdGYqV2G_E", "plus_code": {"compound_code": "WV4C+Q4 Winnipeg, MB, Canada", "global_code": "86X4WV4C+Q4"}, "rating": 4.2, "reference": "ChIJR-eK_j5Gc0ERGsdGYqV2G_E", "scope": "GOOGLE", "types": ["museum", "tourist_attraction", "point_of_interest", "establishment"], "user_ratings_total": 22, "vicinity": "140 Meade Street North, Winnipeg"}, {"business_status": "OPERATIONAL", "geometry": {"location": {"lat": 49.89349499999999, "lng": -97.1145509}, "viewport": {"northeast": {"lat": 49.8950468302915, "lng": -97.11332921970849}, "southwest": {"lat": 49.89234886970851, "lng": -97.1160271802915}}}, "icon": "https://maps.gstatic.com/mapfiles/place_api/icons/generic_business-71.png", "id": "45196574af0d3d91aaab981c3a2234e4e0293672", "name": "Centre Culturel Franco-Manitobain", "opening_hours": {"open_now": True}, "photos": [{"height": 2667, "html_attributions": ["<a href="https://maps.google.com/maps/contrib/116176101717739709762">Centre Culturel Franco-Manitobain</a>"], "photo_reference": "CmRaAAAAknI0BcnoIHZR0eFUG82Q367-psde4I7Ld9b2ioW-NOH83NEZb0Hd9Qa3dLTSlXxqRDDJwOM_3WKjEPFb1ZznH1W1hv69PIRcmMB2FQ_aeLbRiHnxZHpwz8aFR9wxW4rEEhB8MwhVk53Bzm3gnqAaXRlbGhQm4YsqGvPwFCwgxfa_XWw2e1ndyQ", "width": 4000}], "place_id": "ChIJgbk7dDpx6lIR-VyEDTYmOew", "plus_code": {"compound_code": "VVVP+95 Winnipeg, MB, Canada", "global_code": "86X4VVVP+95"}, "rating": 4.4, "reference": "ChIJgbk7dDpx6lIR-VyEDTYmOew", "scope": "GOOGLE", "types": ["tourist_attraction", "point_of_interest", "establishment"], "user_ratings_total": 317, "vicinity": "340 Provencher Boulevard, Winnipeg"}, {"business_status": "OPERATIONAL", "geometry": {"location": {"lat": 49.9360271, "lng": -97.03655309999999}, "viewport": {"northeast": {"lat": 49.9373887302915, "lng": -97.03525366970848}, "southwest": {"lat": 49.9346907697085, "lng": -97.0379516302915}}}, "icon": "https://maps.gstatic.com/mapfiles/place_api/icons/generic_recreational-71.png", "id": "85627ffd264204623054f47bdd7405989c22c75c", "name": "Kilcona Off-leash Dog Park", "opening_hours": {"open_now": True}, "photos": [{"height": 3480, "html_attributions": ["<a href="https://maps.google.com/maps/contrib/101508390355676154157">Justin Mei</a>"], "photo_reference": "CmRaAAAA7x_ISfV5YdUK9d3742A5vr8hISTM7ECOgaKKUmuHV_I6UbHMVgnAPX8kJEKiVQaP9qblSvAA2ghsljIxITN4HBlXXWTy5sWDSC2szDxhrR2gdOQ6Wh9Cgy19bH0BelJ1EhBZejfh1k0NbJI90iH0BFV2GhTErl7m9NIYqc5Pt2wAHm6oP5XFfQ", "width": 4640}], "place_id": "ChIJz4bXPYl66lIRLB55nf-IbvQ", "plus_code": {"compound_code": "WXP7+C9 Winnipeg, MB, Canada", "global_code": "86X4WXP7+C9"}, "rating": 4.4, "reference": "ChIJz4bXPYl66lIRLB55nf-IbvQ", "scope": "GOOGLE", "types": ["tourist_attraction", "park", "point_of_interest", "establishment"], "user_ratings_total": 687, "vicinity": "Springfield Road, Winnipeg"}, {"business_status": "OPERATIONAL", "geometry": {"location": {"lat": 49.88779539999999, "lng": -97.1232186}, "viewport": {"northeast": {"lat": 49.88912978029149, "lng": -97.12223066970849}, "southwest": {"lat": 49.88643181970849, "lng": -97.12492863029149}}}, "icon": "https://maps.gstatic.com/mapfiles/place_api/icons/museum-71.png", "id": "7bc85e8bfe16db1d22d7613aa0916b4fbcf145bd", "name": "Le Musée de Saint-Boniface Museum", "opening_hours": {"open_now": False}, "photos": [{"height": 576, "html_attributions": ["<a href="https://maps.google.com/maps/contrib/103876222182883238980">Le Musée de Saint-Boniface Museum</a>"], "photo_reference": "CmRaAAAAZ0GN7BR0hCP6I6akprYTnoRNN9x8bCVIdD3cWHHmx7cvw8UrZUaXdAu2rhk27QZBToO2mlBSjDVW5J8PqkWvVJUxDd7Ipkp8R0y53ZoQY0r6-wDMqYDt2tL8MSxBKLx5EhCyWRhTz5XLpVOEYTqdXup6GhREHdnSEv_LJwRwaHZqENlQCR2QTw", "width": 1024}], "place_id": "ChIJt_kDm0lx6lIRsE8BgQSxabs", "plus_code": {"compound_code": "VVQG+4P Winnipeg, MB, Canada", "global_code": "86X4VVQG+4P"}, "rating": 4.5, "reference": "ChIJt_kDm0lx6lIRsE8BgQSxabs", "scope": "GOOGLE", "types": ["museum", "tourist_attraction", "point_of_interest", "clothing_store", "store", "establishment"], "user_ratings_total": 131, "vicinity": "494 Tache Avenue, Winnipeg"}, {"business_status": "OPERATIONAL", "geometry": {"location": {"lat": 49.9185781, "lng": -97.1298559}, "viewport": {"northeast": {"lat": 49.91991813029149, "lng": -97.1284797697085}, "southwest": {"lat": 49.91722016970849, "lng": -97.13117773029151}}}, "icon": "https://maps.gstatic.com/mapfiles/place_api/icons/museum-71.png", "id": "ac22f8d45381313d26b4d8bf9a6bfb923b94d255", "name": "Ukrainian Museum of Canada Manitoba Branch", "opening_hours": {"open_now": True}, "photos": [{"height": 1390, "html_attributions": ["<a href="https://maps.google.com/maps/contrib/101715277132895597759">Ryan Orne-Zaluski</a>"], "photo_reference": "CmRaAAAAifLRwpYJj2O_hsm5Ytg5MrQ59Jkr9ZggQSVhGRaYZQ9jj7_SOWlei524ktQexbzOaaKl2ILLvdjD8XzamXLSR4zY8jwLqbGlsGwBoyKAzEQFtU59cpdG_ZYqyq_mdN-xEhBuG86Y0-jnIWklxOmcl0JyGhQjI-JOPYvq9ITwHWaJ0I1gwWFHQQ", "width": 1920}], "place_id": "ChIJX_nks3Rx6lIRynjWc94_iz8", "plus_code": {"compound_code": "WV9C+C3 Winnipeg, MB, Canada", "global_code": "86X4WV9C+C3"}, "rating": 4, "reference": "ChIJX_nks3Rx6lIRynjWc94_iz8", "scope": "GOOGLE", "types": ["museum", "tourist_attraction", "point_of_interest", "establishment"], "user_ratings_total": 3, "vicinity": "1175 Main Street, Winnipeg"}, {"business_status": "OPERATIONAL", "geometry": {"location": {"lat": 49.88809490000001, "lng": -97.13146259999999}, "viewport": {"northeast": {"lat": 49.8894453802915, "lng": -97.13006821970849}, "southwest": {"lat": 49.8867474197085, "lng": -97.13276618029151}}}, "icon": "https://maps.gstatic.com/mapfiles/place_api/icons/generic_business-71.png", "id": "51aa3eb0845746ac2f058127b234429e119ebbd5", "name": "The Forks National Historic Site", "photos": [{"height": 1367, "html_attributions": ["<a href="https://maps.google.com/maps/contrib/108730093728810581365">The Forks National Historic Site</a>"], "photo_reference": "CmRaAAAAzb5VB6GVdA2-wGfpS_-G2MfGsuof3EXvuiFLN7XBRln2QGzuxfainaMbLfdEu9u9AGIdtNR5_DMDJtODMyA4jGGPk2hbrCSgJTDRg2Klvg2oQOUPTU2yc3uq5AZdXO2GEhBEK6zPLXS5JoRmzPz7G0x8GhR-yNcf7Y8jddqIgg_iQdLT2YvmIA", "width": 2048}], "place_id": "ChIJi3N8wk5x6lIRqkyf1yhnbqo", "plus_code": {"compound_code": "VVQ9+6C Winnipeg, MB, Canada", "global_code": "86X4VVQ9+6C"}, "rating": 4.7, "reference": "ChIJi3N8wk5x6lIRqkyf1yhnbqo", "scope": "GOOGLE", "types": ["tourist_attraction", "park", "point_of_interest", "establishment"], "user_ratings_total": 312, "vicinity": "Forks Market Road, Winnipeg"}, {"business_status": "OPERATIONAL", "geometry": {"location": {"lat": 49.9427488, "lng": -97.1043777}, "viewport": {"northeast": {"lat": 49.9444333802915, "lng": -97.1029543697085}, "southwest": {"lat": 49.9417354197085, "lng": -97.1056523302915}}}, "icon": "https://maps.gstatic.com/mapfiles/place_api/icons/generic_recreational-71.png", "id": "8368e23a72af6dea9dbc7ef21c80b5eff983d322", "name": "Kildonan Park", "opening_hours": {"open_now": True}, "photos": [{"height": 3376, "html_attributions": ["<a href="https://maps.google.com/maps/contrib/101216886482423849581">Tourism Winnipeg</a>"], "photo_reference": "CmRaAAAAFh8CSMdkdtKj6jlqYCWwWSoYofT5j4ZOO32PkK-u0I1hcAGB58y9IxiPbSKDP8HU487nVzJQqgEW5og1mg9MInWouFXk7FP0FXGCQo9q1n5lS44hTjRWfRtUqS-c8T7XEhBPlIY6S8znseXIC6YNUi9gGhRAV3LvyDHCvanJFSXNZ-RVwqcKnQ", "width": 6000}], "place_id": "ChIJnz9TOEpw6lIRrq8TM3DFQDk", "plus_code": {"compound_code": "WVVW+36 Winnipeg, MB, Canada", "global_code": "86X4WVVW+36"}, "rating": 4.6, "reference": "ChIJnz9TOEpw6lIRrq8TM3DFQDk", "scope": "GOOGLE", "types": ["park", "tourist_attraction", "point_of_interest", "establishment"], "user_ratings_total": 1821, "vicinity": "2015 Main Street, Winnipeg"}, {"business_status": "OPERATIONAL", "geometry": {"location": {"lat": 49.8874083, "lng": -97.13128329999999}, "viewport": {"northeast": {"lat": 49.8888106302915, "lng": -97.1298940697085}, "southwest": {"lat": 49.8861126697085, "lng": -97.1325920302915}}}, "icon": "https://maps.gstatic.com/mapfiles/place_api/icons/generic_business-71.png", "id": "70febdc2fbdaf93d176988a86608f9e200d14c22", "name": "The Forks", "photos": [{"height": 4608, "html_attributions": ["<a href="https://maps.google.com/maps/contrib/112632696165518756529">Gisele Ducas</a>"], "photo_reference": "CmRaAAAAXmUoS2IA1uKsTHoy9AaPpRAabLVwXrjx7Wv_5Zz1y1lFnK3zx1g8udj791F2qK8Fz3Qgd-EhKDcXjn9wXaPoAYGd1pHIP5tZcbnXS5vsH7i_iibLmaLdxnU4DUIiX-GoEhAOt_DzpboAaz1vjnM6WZPlGhQAmq8ae2RayFDBwISYoOVjueIcvw", "width": 3456}], "place_id": "ChIJnQr7iE5x6lIR5qvEJzmPOoA", "plus_code": {"compound_code": "VVP9+XF Winnipeg, MB, Canada", "global_code": "86X4VVP9+XF"}, "rating": 4.6, "reference": "ChIJnQr7iE5x6lIR5qvEJzmPOoA", "scope": "GOOGLE", "types": ["tourist_attraction", "restaurant", "food", "point_of_interest", "store", "establishment"], "user_ratings_total": 11595, "vicinity": "1 Forks Market Road, Winnipeg"}, {"business_status": "OPERATIONAL", "geometry": {"location": {"lat": 49.8862713, "lng": -97.12999339999999}, "viewport": {"northeast": {"lat": 49.88809388029149, "lng": -97.12836296970849}, "southwest": {"lat": 49.88539591970849, "lng": -97.1310609302915}}}, "icon": "https://maps.gstatic.com/mapfiles/place_api/icons/generic_business-71.png", "id": "8c0bc518625f0b77dac748711010d7e20332c948", "name": "Splash Dash Services", "opening_hours": {"open_now": True}, "photos": [{"height": 674, "html_attributions": ["<a href="https://maps.google.com/maps/contrib/112300675503433778805">Splash Dash Services</a>"], "photo_reference": "CmRaAAAAHJ9j1lagvD0x5O8TdsQrWdTdkBfki0tNVaC7jZnnwJyaaS9xkxSj3r-RtMDTn_3UJzPlj82fIj_8d1Q1VjlfU0lsLqXYyfb-5iC5HHiDtQNxiXhM01jR1vQCLx0bBpZmEhCHmp212ZpxBwT05sTGhpiuGhSOiR9r22ysdVyX9bKSz4hb2VxPZg", "width": 1200}], "place_id": "ChIJHcUh3lFx6lIRW-v97R4xP_w", "plus_code": {"compound_code": "VVPC+G2 Winnipeg, MB, Canada", "global_code": "86X4VVPC+G2"}, "rating": 5, "reference": "ChIJHcUh3lFx6lIRW-v97R4xP_w", "scope": "GOOGLE", "types": ["tourist_attraction", "travel_agency", "point_of_interest", "establishment"], "user_ratings_total": 5, "vicinity": "112-1 Forks Market Road, Winnipeg"}, {"business_status": "OPERATIONAL", "geometry": {"location": {"lat": 49.88615199999999, "lng": -97.130163}, "viewport": {"northeast": {"lat": 49.8876931302915, "lng": -97.1294725}, "southwest": {"lat": 49.8849951697085, "lng": -97.13223449999998}}}, "icon": "https://maps.gstatic.com/mapfiles/place_api/icons/generic_business-71.png", "id": "a19e3c3d3f78dacd616495150268b2bcc0734f1d", "name": "Splash Dash Historical Tour Boats", "opening_hours": {"open_now": True}, "photos": [{"height": 674, "html_attributions": ["<a href="https://maps.google.com/maps/contrib/113966255211510551845">Splash Dash Historical Tour Boats</a>"], "photo_reference": "CmRZAAAAucVlW4TdMZQEbmjDb_xB_Wce_zOLJvMBvqcVBOpndEh0g96baCaWAhLFev_MFVva_mi1947wGGCl9K2W3KX0euEukWIue8COX4DSF76WqNf4yQUVJn-vxJb4NswpKzljEhBaKjwhXTkjIwJQHeh18cwJGhQMJdoi6L_44Iwr4UYgeHx6BLPPEQ", "width": 1200}], "place_id": "ChIJOfviiE5x6lIRVBbfF5l1osU", "plus_code": {"compound_code": "VVP9+FW Winnipeg, MB, Canada", "global_code": "86X4VVP9+FW"}, "rating": 4.3, "reference": "ChIJOfviiE5x6lIRVBbfF5l1osU", "scope": "GOOGLE", "types": ["tourist_attraction", "travel_agency", "point_of_interest", "establishment"], "user_ratings_total": 41, "vicinity": "112-1 Forks Market Road, Winnipeg"}, {"business_status": "OPERATIONAL", "geometry": {"location": {"lat": 49.88930719999999, "lng": -97.12207749999999}, "viewport": {"northeast": {"lat": 49.8908575302915, "lng": -97.12075321970849}, "southwest": {"lat": 49.8881595697085, "lng": -97.1234511802915}}}, "icon": "https://maps.gstatic.com/mapfiles/place_api/icons/worship_general-71.png", "id": "af7956afd9a5dc97d0bda7841c27484198c128ff", "name": "Saint Boniface Cathedral", "photos": [{"height": 3024, "html_attributions": ["<a href="https://maps.google.com/maps/contrib/114404469352620156896">Alice Liang</a>"], "photo_reference": "CmRaAAAAwWhAKcera-mmS8Ad23v-PIjgv04y4aCvtdxlWTRtkJhhHSILJkWDH4HoJ3Gq3HtkltXnmRUB2uaGy5fC7K6IHobMc5JEGv1hBRaD7EslFfOWj83xFKYJoulbx31dtw9MEhBUgdK-APhITxzO7m5ktn0oGhRaN83Aa4E2q_uO6iylYRfOWpkKMA", "width": 4032}], "place_id": "ChIJOeoA20lx6lIRV91DbAfFPiE", "plus_code": {"compound_code": "VVQH+P5 Winnipeg, MB, Canada", "global_code": "86X4VVQH+P5"}, "rating": 4.6, "reference": "ChIJOeoA20lx6lIRV91DbAfFPiE", "scope": "GOOGLE", "types": ["tourist_attraction", "church", "place_of_worship", "point_of_interest", "establishment"], "user_ratings_total": 347, "vicinity": "180 Avenue de la Cathedrale, Winnipeg"}, {"business_status": "OPERATIONAL", "geometry": {"location": {"lat": 49.92864059999999, "lng": -97.092508}, "viewport": {"northeast": {"lat": 49.93003953029149, "lng": -97.09131051970849}, "southwest": {"lat": 49.9273415697085, "lng": -97.0940084802915}}}, "icon": "https://maps.gstatic.com/mapfiles/place_api/icons/generic_recreational-71.png", "id": "d37f6c3d3eb6054aafe691c483c4e374ce1c762d", "name": "Glenn McWhinney Park", "photos": [{"height": 3120, "html_attributions": ["<a href="https://maps.google.com/maps/contrib/113179903636245100402">Dennis Penner</a>"], "photo_reference": "CmRaAAAAqXN00DLpuizUnm2K-x_gAEUKt79E8Aw1uBKXwqaYfoNibgunLVP0ns2TgTM5rRzlUgriF-388q2WaQOReyp_1G7loESs2va_CIszkY-mJQszf0_RH-DITmNK7eA4H0j0EhCPo3QktH-UkHVcv-l1aCZAGhSXXw3L-0o1uI-rCtaxRIG4vtam7w", "width": 4160}], "place_id": "ChIJbYR_0Flw6lIRhXb7DrWyuZU", "plus_code": {"compound_code": "WWH4+FX Winnipeg, MB, Canada", "global_code": "86X4WWH4+FX"}, "rating": 4.5, "reference": "ChIJbYR_0Flw6lIRhXb7DrWyuZU", "scope": "GOOGLE", "types": ["park", "tourist_attraction", "point_of_interest", "establishment"], "user_ratings_total": 38, "vicinity": "St, 401 Roch Street, Winnipeg"}, {"business_status": "OPERATIONAL", "geometry": {"location": {"lat": 49.9034584, "lng": -97.05365049999999}, "viewport": {"northeast": {"lat": 49.9047759802915, "lng": -97.05229846970849}, "southwest": {"lat": 49.9020780197085, "lng": -97.0549964302915}}}, "icon": "https://maps.gstatic.com/mapfiles/place_api/icons/generic_recreational-71.png", "id": "ea861137727fa99f469ad1ce165ced7e8c50f650", "name": "Apee Panchhi Park", "photos": [{"height": 1960, "html_attributions": ["<a href="https://maps.google.com/maps/contrib/102276318090070491808">Dmytro Malyk</a>"], "photo_reference": "CmRaAAAAWAcQ97rbSvwUxJlZyFMTel5hoHxNiFBGNgzSq-BeqT7phukOoJHfv-y6cKqHP_ZZe2YmRbewbBu5Q0EaMzTZ1SQwv7O7kEjSNvLj5HyblWLWqColcdmBDfLAnzepwKPDEhAxE4jkM1t20-TYuZXJEl-8GhSd7P_9cV2Dfa-xfsO7Q6thOi3PKg", "width": 4032}], "place_id": "ChIJWWKPaaFw6lIR_-rR7Zeg9Cg", "plus_code": {"compound_code": "WW3W+9G Winnipeg, MB, Canada", "global_code": "86X4WW3W+9G"}, "rating": 3.7, "reference": "ChIJWWKPaaFw6lIR_-rR7Zeg9Cg", "scope": "GOOGLE", "types": ["park", "tourist_attraction", "point_of_interest", "establishment"], "user_ratings_total": 13, "vicinity": "1R3, El Tassi Drive, Winnipeg"}, {"business_status": "OPERATIONAL", "geometry": {"location": {"lat": 49.90366059999999, "lng": -97.05259769999999}, "viewport": {"northeast": {"lat": 49.9049298802915, "lng": -97.05124101970848}, "southwest": {"lat": 49.9022319197085, "lng": -97.0539389802915}}}, "icon": "https://maps.gstatic.com/mapfiles/place_api/icons/generic_recreational-71.png", "id": "88534d9693bba98ef7d6e3821206da4a235d498e", "name": "Canada 150 Park", "photos": [{"height": 1960, "html_attributions": ["<a href="https://maps.google.com/maps/contrib/106736707281439867604">Marcos Saraiva</a>"], "photo_reference": "CmRaAAAAp4VBusoHGNX_h2qJABZNCi02F6iGasPh9tLKG7TgqZ3Wdlq1zwisrakVGFcTRobniV14DdYldIRinxbtCDGjnVVlUnuAI6Xp2Ah560oxj-s1YUIzKIJysk8_CJEn-rN6EhACepJ7fTRXVNLQd8yggnQIGhS4wSX2TMScDcITFNXDC4aCAGZgyw", "width": 4032}], "place_id": "ChIJXxo8F6Fw6lIR3EaUfPsApyI", "plus_code": {"compound_code": "WW3W+FX Winnipeg, MB, Canada", "global_code": "86X4WW3W+FX"}, "rating": 4.5, "reference": "ChIJXxo8F6Fw6lIR3EaUfPsApyI", "scope": "GOOGLE", "types": ["park", "tourist_attraction", "point_of_interest", "establishment"], "user_ratings_total": 6, "vicinity": "1R3, El Tassi Drive, Winnipeg"}, {"business_status": "OPERATIONAL", "geometry": {"location": {"lat": 49.907018, "lng": -97.1144321}, "viewport": {"northeast": {"lat": 49.9083669802915, "lng": -97.1130831197085}, "southwest": {"lat": 49.9056690197085, "lng": -97.11578108029151}}}, "icon": "https://maps.gstatic.com/mapfiles/place_api/icons/generic_recreational-71.png", "id": "06cee7b91621bb83ecac1cd33eafeb46be2f223b", "name": "Ernie O" Dowda Park", "opening_hours": {"open_now": True}, "photos": [{"height": 3120, "html_attributions": ["<a href="https://maps.google.com/maps/contrib/103387229008505295884">Jakeline Oliveira</a>"], "photo_reference": "CmRaAAAA8lw4gqxhPfUqNln3ytGGLNnj3Qu-oGeC1z8Ed4wd4VnCgdw91QhsR1W-xI8HlhZ1UnKd-pn1uNVTp_x7FnuD3lhxvIU4RsrsGEZPrWuBalyQAK-JWOIjIPUr-aR-rbXeEhCcx7jT34tuKGWGlGCOc6LpGhTz_G1aCo2DO5nluLjcEudrlTI--w", "width": 4160}], "place_id": "ChIJq-bqFRdx6lIRpvZyZR31ZV8", "plus_code": {"compound_code": "WV4P+R6 Winnipeg, MB, Canada", "global_code": "86X4WV4P+R6"}, "rating": 3.8, "reference": "ChIJq-bqFRdx6lIRpvZyZR31ZV8", "scope": "GOOGLE", "types": ["park", "tourist_attraction", "point_of_interest", "establishment"], "user_ratings_total": 43, "vicinity": "194 Talbot Avenue, Winnipeg"}, {"business_status": "OPERATIONAL", "geometry": {"location": {"lat": 49.93803639999999, "lng": -97.1029829}, "viewport": {"northeast": {"lat": 49.9393853802915, "lng": -97.1016339197085}, "southwest": {"lat": 49.9366874197085, "lng": -97.10433188029151}}}, "icon": "https://maps.gstatic.com/mapfiles/place_api/icons/generic_recreational-71.png", "id": "20ac4ab14a1af3ee4b0c402469d4760d6a3a5e63", "name": "Fraser"s Grove Park", "opening_hours": {"open_now": True}, "photos": [{"height": 2736, "html_attributions": ["<a href="https://maps.google.com/maps/contrib/109652820104602112361">Rhonda Reed</a>"], "photo_reference": "CmRaAAAArSYDCGUxWWTBmyJdFiCjauh8ZbfsF7EmqvYi9_shaHRQJR_z_OG7X3pCwU260TNMBVDGTrKzUkfUvisstVEaxiIz9NhAgYkhBDVqaqRE-W-FyYVErwIe5cVDRpgvXv8JEhCCRgpc2BiLbA0prmss2a_ZGhRjnxzaq1swtC1yKe-aPmEH1uajiA", "width": 3648}], "place_id": "ChIJXR3QMUxw6lIRJOIgAGU4rUA", "plus_code": {"compound_code": "WVQW+6R Winnipeg, MB, Canada", "global_code": "86X4WVQW+6R"}, "rating": 4.5, "reference": "ChIJXR3QMUxw6lIRJOIgAGU4rUA", "scope": "GOOGLE", "types": ["park", "tourist_attraction", "point_of_interest", "establishment"], "user_ratings_total": 152, "vicinity": "85 Frasers Grove, Winnipeg"}, {"business_status": "OPERATIONAL", "geometry": {"location": {"lat": 49.903648, "lng": -97.1317952}, "viewport": {"northeast": {"lat": 49.90498108029149, "lng": -97.1302957197085}, "southwest": {"lat": 49.9022831197085, "lng": -97.1329936802915}}}, "icon": "https://maps.gstatic.com/mapfiles/place_api/icons/museum-71.png", "id": "70e2cf7913d8985790814071484e7466b1c985be", "name": "Fire Fighters Museum", "opening_hours": {"open_now": False}, "photos": [{"height": 2268, "html_attributions": ["<a href="https://maps.google.com/maps/contrib/109725610043288573965">Paul Jonker</a>"], "photo_reference": "CmRaAAAA0DCkLNN7VkH9XgmdRNOwm8o_xAAohpW04_QgRHr1XpRf044Q2i3USFb6vF8UDy5Sn4VwWQCWdcFBds_gjsMHUnWU4D_Rtd3JyjfHuKx5brQlX8vCqmG-0zbpGg6W3XTWEhBoXX8EXJIVrea7Sz_EgIdHGhRrBjcci0NDN-OqhWN4aNxBOCX9UA", "width": 4032}], "place_id": "ChIJCSf3IGpx6lIRFNH8uvjU7w4", "plus_code": {"compound_code": "WV39+F7 Winnipeg, MB, Canada", "global_code": "86X4WV39+F7"}, "rating": 4.8, "reference": "ChIJCSf3IGpx6lIRFNH8uvjU7w4", "scope": "GOOGLE", "types": ["museum", "tourist_attraction", "point_of_interest", "establishment"], "user_ratings_total": 36, "vicinity": "56 Maple Street, Winnipeg"}, {"business_status": "OPERATIONAL", "geometry": {"location": {"lat": 49.9440548, "lng": -97.07741539999999}, "viewport": {"northeast": {"lat": 49.94577338029149, "lng": -97.07576756970849}, "southwest": {"lat": 49.9430754197085, "lng": -97.0784655302915}}}, "icon": "https://maps.gstatic.com/mapfiles/place_api/icons/generic_recreational-71.png", "id": "675df4da402fa56e746792d6dacb18eeed26d790", "name": "Jill Officer Park", "opening_hours": {"open_now": True}, "photos": [{"height": 1200, "html_attributions": ["<a href="https://maps.google.com/maps/contrib/105669306937594090198">Iuliia Diachenko</a>"], "photo_reference": "CmRaAAAAOlfXh3bdALwe2yJgKDCexFkI8exKLZN7YDjNO2AzXr-PS1kuuyTTy5EXOJGStY6G9HGSVPlRoQ_bCVul5NCoQXuZDPkk57rf2wgTGG6dHe0ZH7TI6GqvTVFTgH0VssxtEhDvh8m6jFJnyggF1z4Ry05rGhRn1qja2NYcuH4ix-TlRvJqOffs-Q", "width": 1600}], "place_id": "ChIJ72MVZWxw6lIR_4N_2aXmwQI", "plus_code": {"compound_code": "WWVF+J2 Winnipeg, MB, Canada", "global_code": "86X4WWVF+J2"}, "rating": 4.1, "reference": "ChIJ72MVZWxw6lIR_4N_2aXmwQI", "scope": "GOOGLE", "types": ["park", "tourist_attraction", "point_of_interest", "establishment"], "user_ratings_total": 96, "vicinity": "1400 Rothesay Street, Winnipeg"}], "status": "OK"}
